{
  "version": 0.6,
  "generator": "Overpass API 0.7.56.8 7d656e78",
  "osm3s": {
    "timestamp_osm_base": "2021-12-11T04:59:35Z",
    "copyright": "The data included in this document is from www.openstreetmap.org. The data is made available under ODbL."
  },
  "elements": [
    {
      "type": "node",
      "id": 1395132046,
      "lat": 51.2175884,
      "lon": 5.6641037,
      "tags": {
        "amenity": "bench",
        "source": "survey"
      }
    },
    {
      "type": "node",
      "id": 1395132062,
      "lat": 51.2279589,
      "lon": 5.653137,
      "tags": {
        "amenity": "bench",
        "source": "survey"
      }
    },
    {
      "type": "node",
      "id": 2139734685,
      "lat": 51.194551,
      "lon": 5.7123504,
      "tags": {
        "amenity": "parking",
        "capacity": "10",
        "name": "Bokkenstraat",
        "parking": "surface"
      }
    },
    {
      "type": "node",
      "id": 2408082665,
      "lat": 51.1897633,
      "lon": 5.695545,
      "tags": {
        "amenity": "bench"
      }
    },
    {
      "type": "node",
      "id": 2650347947,
      "lat": 51.1827559,
      "lon": 5.6448974,
      "tags": {
        "amenity": "bench"
      }
    },
    {
      "type": "node",
      "id": 2879846986,
      "lat": 51.1841906,
      "lon": 5.7114018,
      "tags": {
        "amenity": "bench"
      }
    },
    {
      "type": "node",
      "id": 2911514861,
      "lat": 51.1872407,
      "lon": 5.6768168,
      "tags": {
        "amenity": "bench"
      }
    },
    {
      "type": "node",
      "id": 2911517255,
      "lat": 51.187094,
      "lon": 5.6612079,
      "tags": {
        "amenity": "bench"
      }
    },
    {
      "type": "node",
      "id": 3113304294,
      "lat": 51.1816478,
      "lon": 5.6695312,
      "tags": {
        "information": "board",
        "name": "De Houtbroek",
        "tourism": "information"
      }
    },
    {
      "type": "node",
      "id": 3113304295,
      "lat": 51.1832895,
      "lon": 5.6724866,
      "tags": {
        "information": "board",
        "name": "De Houtbroek",
        "tourism": "information"
      }
    },
    {
      "type": "node",
      "id": 3113304296,
      "lat": 51.1834088,
      "lon": 5.6710681,
      "tags": {
        "information": "board",
        "name": "De Houtbroek",
        "tourism": "information"
      }
    },
    {
      "type": "node",
      "id": 3113304297,
      "lat": 51.1846517,
      "lon": 5.6581629,
      "tags": {
        "information": "board",
        "name": "Het moerasbos Stamprooierbroek",
        "tourism": "information"
      }
    },
    {
      "type": "node",
      "id": 3559136316,
      "lat": 51.2034477,
      "lon": 5.7051724,
      "tags": {
        "leisure": "picnic_table"
      }
    },
    {
      "type": "node",
      "id": 3622257764,
      "lat": 51.2024896,
      "lon": 5.6926659,
      "tags": {
        "amenity": "bench"
      }
    },
    {
      "type": "node",
      "id": 3929950833,
      "lat": 51.2112264,
      "lon": 5.628754,
      "tags": {
        "amenity": "bench"
      }
    },
    {
      "type": "node",
      "id": 5972731285,
      "lat": 51.2306791,
      "lon": 5.6252548,
      "tags": {
        "amenity": "bench"
      }
    },
    {
      "type": "node",
      "id": 6475634737,
      "lat": 51.1989478,
      "lon": 5.6567843,
      "tags": {
        "bench": "yes",
        "colour": "brown",
        "leisure": "picnic_table",
        "lit": "no",
        "material": "wood"
      }
    },
    {
      "type": "node",
      "id": 6475661785,
      "lat": 51.1966157,
      "lon": 5.6717933,
      "tags": {
        "information": "board",
        "tourism": "information"
      }
    },
    {
      "type": "node",
      "id": 6475661786,
      "lat": 51.1937418,
      "lon": 5.6733683,
      "tags": {
        "amenity": "bench",
        "backrest": "yes",
        "colour": "brown",
        "material": "wood",
        "seats": "4"
      }
    },
    {
      "type": "node",
      "id": 6475661788,
      "lat": 51.1926262,
      "lon": 5.6811811,
      "tags": {
        "amenity": "bench",
        "backrest": "yes",
        "colour": "brown",
        "material": "wood",
        "seats": "4"
      }
    },
    {
      "type": "node",
      "id": 6475661790,
      "lat": 51.1944517,
      "lon": 5.6980791,
      "tags": {
        "amenity": "bench",
        "backrest": "yes",
        "colour": "brown",
        "material": "wood",
        "seats": "5"
      }
    },
    {
      "type": "node",
      "id": 6742581298,
      "lat": 51.1859878,
      "lon": 5.6280194,
      "tags": {
        "amenity": "bench"
      }
    },
    {
      "type": "node",
      "id": 7077771380,
      "lat": 51.2067211,
      "lon": 5.7048333,
      "tags": {
        "amenity": "bench",
        "backrest": "yes",
        "material": "wood"
      }
    },
    {
      "type": "node",
      "id": 8385192921,
      "lat": 51.1971324,
      "lon": 5.6810279,
      "tags": {
        "amenity": "bench",
        "backrest": "yes"
      }
    },
    {
      "type": "node",
      "id": 8385193093,
      "lat": 51.1957442,
      "lon": 5.6821209,
      "tags": {
        "amenity": "bench",
        "backrest": "yes"
      }
    },
    {
      "type": "node",
      "id": 8385193213,
      "lat": 51.2071147,
      "lon": 5.6828908,
      "tags": {
        "amenity": "bench",
        "backrest": "yes"
      }
    },
    {
      "type": "node",
      "id": 8385202669,
      "lat": 51.2101769,
      "lon": 5.7052611,
      "tags": {
        "amenity": "bench",
        "backrest": "yes"
      }
    },
    {
      "type": "way",
      "id": 54245691,
      "nodes": [
        5270497169,
        5270497167,
        5270497168,
        684116259,
        684141623,
        684129576,
        684163968,
        684152518,
        684095663,
        684153283,
        684132283,
        684096296,
        684144025,
        684100093,
        684155914,
        5270497172,
        5270497171,
        5270497170,
        5270497169
      ],
      "tags": {
        "addr:housename": "Broekmolen",
        "building": "house",
        "image": "File:Stramproy Broekmolen 5462.JPG",
        "man_made": "watermill",
        "name": "Broekmolen",
        "ref:bag": "988100000025022",
        "source": "BAG",
        "source:date": "2014-06-24",
        "start_date": "1738",
        "website": "https://www.molendatabase.nl/nederland/molen.php?nummer=471",
        "wikidata": "Q1837939",
        "wikipedia": "nl:Broekmolen (Stramproy)"
      }
    },
    {
      "type": "way",
      "id": 106068148,
      "nodes": [
        6815252949,
        6815252948,
        6815252947,
        6815252946,
        6815252945,
        6815252944,
        6815252949
      ],
      "tags": {
        "OnroerendErfgoed:criteria": "M",
        "addr:city": "Bocholt",
        "addr:country": "BE",
        "addr:housename": "Luysenmolen",
        "addr:housenumber": "2",
        "addr:postcode": "3950",
        "addr:street": "Luysenstraat",
        "alt_name": "Luysenmolen",
        "building": "yes",
        "heritage": "4",
        "heritage:operator": "OnroerendErfgoed",
        "heritage:website": "https://inventaris.onroerenderfgoed.be/dibe/relict/70731",
        "loc_name": "Luysmolen",
        "man_made": "watermill",
        "name": "Voorste Luysmolen",
        "ref:OnroerendErfgoed": "70731",
        "start_date": "1515",
        "website": "http://www.molenechos.be/molen.php?AdvSearch=143",
        "wikidata": "Q2468835",
        "wikipedia:nl": "Voorste_Luysmolen"
      }
    },
    {
      "type": "way",
      "id": 106068149,
      "nodes": [
        5440498749,
        5440500424,
        5440498748,
        5440500425,
        5440500426,
        5440500427,
        5440500428,
        5440500429,
        1221312142,
        5440500436,
        1221311744,
        1221311527,
        1221312026,
        1221311675,
        1221311892,
        1221311547,
        1221312095,
        1221311995,
        1221311692,
        1221312293,
        5440518793,
        5440500435,
        5440500431,
        5440500432,
        5440500433,
        5440500434,
        1221312221,
        5440500485,
        5440500484,
        5440500483,
        1221312248,
        5440500482,
        5440500481,
        5440500480,
        5440500479,
        5440500478,
        5440500477,
        5440500476,
        5440500475,
        1221311867,
        1221311572,
        1221992447,
        1221312175,
        1221311767,
        5440500474,
        5440500473,
        5440500472,
        5440500470,
        5440500471,
        5440500469,
        5440500468,
        1221311542,
        1221312021,
        1221311984,
        1221311620,
        1221312160,
        1221311752,
        1221311583,
        5440500467,
        5440500466,
        5440500465,
        5440500463,
        5440500462,
        5440500461,
        5440500460,
        5440500459,
        5440500464,
        1221312070,
        1221312071,
        5440500456,
        5440500455,
        5440500454,
        5440500453,
        5440500457,
        5440500452,
        5440500451,
        5440500450,
        5440500448,
        5440500449,
        5440500447,
        5440500458,
        5440500445,
        5440500446,
        5440500444,
        5440500443,
        5440500442,
        1221311770,
        5440500441,
        5440500440,
        5440500437,
        5440500439,
        1221311590,
        5440500438,
        5440500430,
        5440498750,
        5440500423,
        5440500422,
        5440500421,
        5440498820,
        5440498819,
        5440498818,
        5440498817,
        5440498816,
        5440498815,
        5440498814,
        5440498813,
        5440498812,
        5440498811,
        5440498810,
        5440498809,
        5440498808,
        5440498807,
        5440498806,
        5440498805,
        5440498804,
        5440498803,
        5440498802,
        5440498801,
        5440498800,
        5440498799,
        5440498798,
        5440498797,
        5440498796,
        5440498795,
        5440498794,
        5440498793,
        5440498792,
        5440498791,
        5440498790,
        5440498789,
        5440498788,
        5440498787,
        5440498786,
        5440498785,
        5440498784,
        5440498783,
        5440498782,
        5440498781,
        5440498780,
        5440498779,
        5440498778,
        5440498777,
        5440498776,
        5440498775,
        5440498774,
        5440498773,
        5440498772,
        5440498771,
        5440498770,
        5440498769,
        5440498768,
        5440498767,
        5440498766,
        5440498765,
        5440498764,
        5440498763,
        5440498762,
        5440498761,
        5440498760,
        5440498759,
        5440498758,
        5440498757,
        5440498756,
        5440498755,
        5440498754,
        5440498753,
        5440498752,
        5440498751,
        5440498749
      ],
      "tags": {
        "alt_name": "De Luysen",
        "boundary": "protected_area",
        "leisure": "nature_reserve",
        "name": "De Luysen - Mariahof",
        "operator": "Natuurpunt",
        "protect_class": "1",
        "protection_title": "Erkend Natuurreservaat",
        "wikidata": "Q4330940",
        "wikipedia": "nl:De Luysen"
      }
    },
    {
      "type": "way",
      "id": 106068166,
      "nodes": [
        1221311610,
        1221312237,
        1221311840,
        1221311566,
        1221311837,
        1221311610
      ],
      "tags": {
        "amenity": "parking",
        "name": "Voorste Luysmolen"
      }
    },
    {
      "type": "way",
      "id": 106938442,
      "nodes": [
        1229573343,
        1229573339,
        1229573348,
        1229573351,
        1229573338,
        1229573347,
        1229573346,
        1229573343
      ],
      "tags": {
        "building": "shelter",
        "leisure": "bird_hide",
        "name": "Vogelkijkhut De IJsvogel",
        "tourism": "viewpoint"
      }
    },
    {
      "type": "way",
      "id": 106938446,
      "nodes": [
        1229573353,
        1229573333,
        1229573329,
        1229573340,
        1229573353
      ],
      "tags": {
        "building": "shelter",
        "leisure": "bird_hide",
        "name": "Vogelkijkhut De Wielewaal",
        "tourism": "viewpoint"
      }
    },
    {
      "type": "way",
      "id": 184420563,
      "nodes": [
        1283717939,
        1283695532,
        1948966064,
        1283710055,
        1283691030,
        1948966062,
        1283717939
      ],
      "tags": {
        "amenity": "parking"
      }
    },
    {
      "type": "way",
      "id": 232530393,
      "nodes": [
        1283864256,
        1283864869,
        1283862357,
        1283861751,
        1283864607,
        1283864845,
        1283863603,
        1283863079,
        1283861903,
        1283864256
      ],
      "tags": {
        "amenity": "parking"
      }
    },
    {
      "type": "way",
      "id": 564760986,
      "nodes": [
        5440565536,
        5440565535,
        5440565534,
        5440565533,
        5440565532,
        5440565531,
        5440565530,
        5440565529,
        5440565528,
        5440565527,
        5440565526,
        5440565525,
        5440565524,
        5440565523,
        5440565522,
        5440565521,
        5440565220,
        5440565219,
        5440565218,
        5440565217,
        5440565216,
        5440565215,
        5440565214,
        5440565213,
        5440565212,
        5440565211,
        5440565210,
        5440565209,
        5440565208,
        5440565207,
        5440565206,
        5440565205,
        5440565204,
        5440565203,
        5440565202,
        5440565201,
        5440565200,
        5440565199,
        5440565198,
        5440565197,
        5440565196,
        5440565195,
        5440565194,
        5440565193,
        5440565192,
        5440565191,
        5440565190,
        5440565189,
        5440565188,
        5440565187,
        5440565186,
        5440565185,
        5440565184,
        5440565183,
        5440565182,
        5440565181,
        5440565180,
        5440565179,
        5440565178,
        5440565177,
        5440565176,
        5440565175,
        5440565174,
        5440565173,
        5440565172,
        5440565171,
        5440565170,
        5440565169,
        5440565168,
        5440565167,
        5440565166,
        5440565165,
        5440565164,
        5440565163,
        5440565162,
        5440565161,
        5440565160,
        5440565159,
        5440565158,
        5440565157,
        5440565156,
        5440565155,
        5440565154,
        5440565153,
        5440565152,
        5440565151,
        5440565150,
        5440565149,
        5440565148,
        5440565147,
        5440565146,
        5440565145,
        5440565144,
        5440565143,
        5440565142,
        5440565141,
        5440565140,
        5440565139,
        5440565138,
        5440565137,
        5440565136,
        5440565536
      ],
      "tags": {
        "alt_name": "Smeetshof",
        "boundary": "protected_area",
        "leisure": "nature_reserve",
        "name": "Natuurreservaat Smeetshof",
        "operator": "Natuurpunt",
        "protect_class": "1",
        "protection_title": "Erkend Natuurreservaat"
      }
    },
    {
      "type": "way",
      "id": 611283809,
      "nodes": [
        5787847933,
        5787847932,
        5787847931,
        5787847930,
        5787847929,
        5787847928,
        5787847933
      ],
      "tags": {
        "amenity": "parking"
      }
    },
    {
      "type": "way",
      "id": 690233422,
      "nodes": [
        6475661792,
        6475661793,
        6475661794,
        6475661795,
        6475661792
      ],
      "tags": {
        "access": "yes",
        "amenity": "parking",
        "capacity": "5",
        "fee": "no",
        "parking": "lane",
        "surface": "asphalt"
      }
    },
    {
      "type": "node",
      "id": 1395132046,
      "lat": 51.2175884,
      "lon": 5.6641037,
      "timestamp": "2011-08-11T16:27:21Z",
      "version": 1,
      "changeset": 8987026,
      "user": "Frankl2009",
      "uid": 91749,
      "tags": {
        "amenity": "bench",
        "source": "survey"
      }
    },
    {
      "type": "node",
      "id": 1395132062,
      "lat": 51.2279589,
      "lon": 5.653137,
      "timestamp": "2011-08-11T16:27:22Z",
      "version": 1,
      "changeset": 8987026,
      "user": "Frankl2009",
      "uid": 91749,
      "tags": {
        "amenity": "bench",
        "source": "survey"
      }
    },
    {
      "type": "node",
      "id": 2139734685,
      "lat": 51.194551,
      "lon": 5.7123504,
      "timestamp": "2013-02-03T03:11:45Z",
      "version": 1,
      "changeset": 14890844,
      "user": "jlsry",
      "uid": 1219225,
      "tags": {
        "amenity": "parking",
        "capacity": "10",
        "name": "Bokkenstraat",
        "parking": "surface"
      }
    },
    {
      "type": "node",
      "id": 2408082665,
      "lat": 51.1897633,
      "lon": 5.695545,
      "timestamp": "2013-08-05T17:02:41Z",
      "version": 1,
      "changeset": 17230569,
      "user": "Kattenbakvulling",
      "uid": 669642,
      "tags": {
        "amenity": "bench"
      }
    },
    {
      "type": "node",
      "id": 2650347947,
      "lat": 51.1827559,
      "lon": 5.6448974,
      "timestamp": "2014-02-02T18:35:17Z",
      "version": 1,
      "changeset": 20339566,
      "user": "StijnRR",
      "uid": 911613,
      "tags": {
        "amenity": "bench"
      }
    },
    {
      "type": "node",
      "id": 2879846986,
      "lat": 51.1841906,
      "lon": 5.7114018,
      "timestamp": "2014-05-25T13:09:14Z",
      "version": 1,
      "changeset": 22542873,
      "user": "Kattenbakvulling",
      "uid": 669642,
      "tags": {
        "amenity": "bench"
      }
    },
    {
      "type": "node",
      "id": 2911514861,
      "lat": 51.1872407,
      "lon": 5.6768168,
      "timestamp": "2014-06-11T16:38:58Z",
      "version": 1,
      "changeset": 22874965,
      "user": "PaDuke",
      "uid": 1707526,
      "tags": {
        "amenity": "bench"
      }
    },
    {
      "type": "node",
      "id": 2911517255,
      "lat": 51.187094,
      "lon": 5.6612079,
      "timestamp": "2014-06-11T16:40:38Z",
      "version": 1,
      "changeset": 22874990,
      "user": "PaDuke",
      "uid": 1707526,
      "tags": {
        "amenity": "bench"
      }
    },
    {
      "type": "node",
      "id": 3113304294,
      "lat": 51.1816478,
      "lon": 5.6695312,
      "timestamp": "2014-10-05T18:45:14Z",
      "version": 1,
      "changeset": 25882485,
      "user": "StijnRR",
      "uid": 911613,
      "tags": {
        "information": "board",
        "name": "De Houtbroek",
        "tourism": "information"
      }
    },
    {
      "type": "node",
      "id": 3113304295,
      "lat": 51.1832895,
      "lon": 5.6724866,
      "timestamp": "2014-10-05T18:45:14Z",
      "version": 1,
      "changeset": 25882485,
      "user": "StijnRR",
      "uid": 911613,
      "tags": {
        "information": "board",
        "name": "De Houtbroek",
        "tourism": "information"
      }
    },
    {
      "type": "node",
      "id": 3113304296,
      "lat": 51.1834088,
      "lon": 5.6710681,
      "timestamp": "2014-10-05T18:45:14Z",
      "version": 1,
      "changeset": 25882485,
      "user": "StijnRR",
      "uid": 911613,
      "tags": {
        "information": "board",
        "name": "De Houtbroek",
        "tourism": "information"
      }
    },
    {
      "type": "node",
      "id": 3113304297,
      "lat": 51.1846517,
      "lon": 5.6581629,
      "timestamp": "2014-10-05T18:45:14Z",
      "version": 1,
      "changeset": 25882485,
      "user": "StijnRR",
      "uid": 911613,
      "tags": {
        "information": "board",
        "name": "Het moerasbos Stamprooierbroek",
        "tourism": "information"
      }
    },
    {
      "type": "node",
      "id": 3559136316,
      "lat": 51.2034477,
      "lon": 5.7051724,
      "timestamp": "2015-05-30T17:47:27Z",
      "version": 1,
      "changeset": 31589639,
      "user": "Kattenbakvulling",
      "uid": 669642,
      "tags": {
        "leisure": "picnic_table"
      }
    },
    {
      "type": "node",
      "id": 3622257764,
      "lat": 51.2024896,
      "lon": 5.6926659,
      "timestamp": "2015-06-27T18:20:53Z",
      "version": 1,
      "changeset": 32248287,
      "user": "PaDuke",
      "uid": 1707526,
      "tags": {
        "amenity": "bench"
      }
    },
    {
      "type": "node",
      "id": 3929950833,
      "lat": 51.2112264,
      "lon": 5.628754,
      "timestamp": "2016-01-06T08:20:41Z",
      "version": 1,
      "changeset": 36397290,
      "user": "Dolar",
      "uid": 330501,
      "tags": {
        "amenity": "bench"
      }
    },
    {
      "type": "node",
      "id": 5972731285,
      "lat": 51.2306791,
      "lon": 5.6252548,
      "timestamp": "2018-10-10T17:23:00Z",
      "version": 1,
      "changeset": 63388203,
      "user": "Wim van der Ven",
      "uid": 1817282,
      "tags": {
        "amenity": "bench"
      }
    },
    {
      "type": "node",
      "id": 6475634737,
      "lat": 51.1989478,
      "lon": 5.6567843,
      "timestamp": "2019-05-15T14:47:27Z",
      "version": 1,
      "changeset": 70279577,
      "user": "frans2650",
      "uid": 9514585,
      "tags": {
        "bench": "yes",
        "colour": "brown",
        "leisure": "picnic_table",
        "lit": "no",
        "material": "wood"
      }
    },
    {
      "type": "node",
      "id": 6475661785,
      "lat": 51.1966157,
      "lon": 5.6717933,
      "timestamp": "2019-05-15T14:59:43Z",
      "version": 1,
      "changeset": 70280133,
      "user": "frans2650",
      "uid": 9514585,
      "tags": {
        "information": "board",
        "tourism": "information"
      }
    },
    {
      "type": "node",
      "id": 6475661786,
      "lat": 51.1937418,
      "lon": 5.6733683,
      "timestamp": "2019-05-15T14:59:43Z",
      "version": 1,
      "changeset": 70280133,
      "user": "frans2650",
      "uid": 9514585,
      "tags": {
        "amenity": "bench",
        "backrest": "yes",
        "colour": "brown",
        "material": "wood",
        "seats": "4"
      }
    },
    {
      "type": "node",
      "id": 6475661788,
      "lat": 51.1926262,
      "lon": 5.6811811,
      "timestamp": "2019-05-15T14:59:43Z",
      "version": 1,
      "changeset": 70280133,
      "user": "frans2650",
      "uid": 9514585,
      "tags": {
        "amenity": "bench",
        "backrest": "yes",
        "colour": "brown",
        "material": "wood",
        "seats": "4"
      }
    },
    {
      "type": "node",
      "id": 6475661790,
      "lat": 51.1944517,
      "lon": 5.6980791,
      "timestamp": "2019-05-15T14:59:43Z",
      "version": 1,
      "changeset": 70280133,
      "user": "frans2650",
      "uid": 9514585,
      "tags": {
        "amenity": "bench",
        "backrest": "yes",
        "colour": "brown",
        "material": "wood",
        "seats": "5"
      }
    },
    {
      "type": "node",
      "id": 6742581298,
      "lat": 51.1859878,
      "lon": 5.6280194,
      "timestamp": "2019-08-24T18:45:02Z",
      "version": 1,
      "changeset": 73702398,
      "user": "FrankSTLS",
      "uid": 4801388,
      "tags": {
        "amenity": "bench"
      }
    },
    {
      "type": "node",
      "id": 7077771380,
      "lat": 51.2067211,
      "lon": 5.7048333,
      "timestamp": "2021-02-01T21:02:30Z",
      "version": 2,
      "changeset": 98533973,
      "user": "r0di",
      "uid": 4737001,
      "tags": {
        "amenity": "bench",
        "backrest": "yes",
        "material": "wood"
      }
    },
    {
      "type": "node",
      "id": 8385192921,
      "lat": 51.1971324,
      "lon": 5.6810279,
      "timestamp": "2021-02-01T21:02:29Z",
      "version": 1,
      "changeset": 98533973,
      "user": "r0di",
      "uid": 4737001,
      "tags": {
        "amenity": "bench",
        "backrest": "yes"
      }
    },
    {
      "type": "node",
      "id": 8385193093,
      "lat": 51.1957442,
      "lon": 5.6821209,
      "timestamp": "2021-02-01T21:02:29Z",
      "version": 1,
      "changeset": 98533973,
      "user": "r0di",
      "uid": 4737001,
      "tags": {
        "amenity": "bench",
        "backrest": "yes"
      }
    },
    {
      "type": "node",
      "id": 8385193213,
      "lat": 51.2071147,
      "lon": 5.6828908,
      "timestamp": "2021-02-01T21:02:30Z",
      "version": 1,
      "changeset": 98533973,
      "user": "r0di",
      "uid": 4737001,
      "tags": {
        "amenity": "bench",
        "backrest": "yes"
      }
    },
    {
      "type": "node",
      "id": 8385202669,
      "lat": 51.2101769,
      "lon": 5.7052611,
      "timestamp": "2021-02-01T21:02:31Z",
      "version": 1,
      "changeset": 98533973,
      "user": "r0di",
      "uid": 4737001,
      "tags": {
        "amenity": "bench",
        "backrest": "yes"
      }
    },
    {
      "type": "way",
      "id": 54245691,
      "timestamp": "2018-10-12T14:26:53Z",
      "version": 13,
      "changeset": 63459614,
      "user": "-WI-",
      "uid": 102162,
      "nodes": [
        5270497169,
        5270497167,
        5270497168,
        684116259,
        684141623,
        684129576,
        684163968,
        684152518,
        684095663,
        684153283,
        684132283,
        684096296,
        684144025,
        684100093,
        684155914,
        5270497172,
        5270497171,
        5270497170,
        5270497169
      ],
      "tags": {
        "addr:housename": "Broekmolen",
        "building": "house",
        "image": "File:Stramproy Broekmolen 5462.JPG",
        "man_made": "watermill",
        "name": "Broekmolen",
        "ref:bag": "988100000025022",
        "source": "BAG",
        "source:date": "2014-06-24",
        "start_date": "1738",
        "website": "https://www.molendatabase.nl/nederland/molen.php?nummer=471",
        "wikidata": "Q1837939",
        "wikipedia": "nl:Broekmolen (Stramproy)"
      }
    },
    {
      "type": "way",
      "id": 106068148,
      "timestamp": "2020-07-12T22:17:49Z",
      "version": 6,
      "changeset": 87890576,
      "user": "L'imaginaire",
      "uid": 654234,
      "nodes": [
        6815252949,
        6815252948,
        6815252947,
        6815252946,
        6815252945,
        6815252944,
        6815252949
      ],
      "tags": {
        "OnroerendErfgoed:criteria": "M",
        "addr:city": "Bocholt",
        "addr:country": "BE",
        "addr:housename": "Luysenmolen",
        "addr:housenumber": "2",
        "addr:postcode": "3950",
        "addr:street": "Luysenstraat",
        "alt_name": "Luysenmolen",
        "building": "yes",
        "heritage": "4",
        "heritage:operator": "OnroerendErfgoed",
        "heritage:website": "https://inventaris.onroerenderfgoed.be/dibe/relict/70731",
        "loc_name": "Luysmolen",
        "man_made": "watermill",
        "name": "Voorste Luysmolen",
        "ref:OnroerendErfgoed": "70731",
        "start_date": "1515",
        "website": "http://www.molenechos.be/molen.php?AdvSearch=143",
        "wikidata": "Q2468835",
        "wikipedia:nl": "Voorste_Luysmolen"
      }
    },
    {
      "type": "way",
      "id": 106068149,
      "timestamp": "2018-12-01T00:24:00Z",
      "version": 7,
      "changeset": 65061347,
      "user": "Pieter Vander Vennet",
      "uid": 3818858,
      "nodes": [
        5440498749,
        5440500424,
        5440498748,
        5440500425,
        5440500426,
        5440500427,
        5440500428,
        5440500429,
        1221312142,
        5440500436,
        1221311744,
        1221311527,
        1221312026,
        1221311675,
        1221311892,
        1221311547,
        1221312095,
        1221311995,
        1221311692,
        1221312293,
        5440518793,
        5440500435,
        5440500431,
        5440500432,
        5440500433,
        5440500434,
        1221312221,
        5440500485,
        5440500484,
        5440500483,
        1221312248,
        5440500482,
        5440500481,
        5440500480,
        5440500479,
        5440500478,
        5440500477,
        5440500476,
        5440500475,
        1221311867,
        1221311572,
        1221992447,
        1221312175,
        1221311767,
        5440500474,
        5440500473,
        5440500472,
        5440500470,
        5440500471,
        5440500469,
        5440500468,
        1221311542,
        1221312021,
        1221311984,
        1221311620,
        1221312160,
        1221311752,
        1221311583,
        5440500467,
        5440500466,
        5440500465,
        5440500463,
        5440500462,
        5440500461,
        5440500460,
        5440500459,
        5440500464,
        1221312070,
        1221312071,
        5440500456,
        5440500455,
        5440500454,
        5440500453,
        5440500457,
        5440500452,
        5440500451,
        5440500450,
        5440500448,
        5440500449,
        5440500447,
        5440500458,
        5440500445,
        5440500446,
        5440500444,
        5440500443,
        5440500442,
        1221311770,
        5440500441,
        5440500440,
        5440500437,
        5440500439,
        1221311590,
        5440500438,
        5440500430,
        5440498750,
        5440500423,
        5440500422,
        5440500421,
        5440498820,
        5440498819,
        5440498818,
        5440498817,
        5440498816,
        5440498815,
        5440498814,
        5440498813,
        5440498812,
        5440498811,
        5440498810,
        5440498809,
        5440498808,
        5440498807,
        5440498806,
        5440498805,
        5440498804,
        5440498803,
        5440498802,
        5440498801,
        5440498800,
        5440498799,
        5440498798,
        5440498797,
        5440498796,
        5440498795,
        5440498794,
        5440498793,
        5440498792,
        5440498791,
        5440498790,
        5440498789,
        5440498788,
        5440498787,
        5440498786,
        5440498785,
        5440498784,
        5440498783,
        5440498782,
        5440498781,
        5440498780,
        5440498779,
        5440498778,
        5440498777,
        5440498776,
        5440498775,
        5440498774,
        5440498773,
        5440498772,
        5440498771,
        5440498770,
        5440498769,
        5440498768,
        5440498767,
        5440498766,
        5440498765,
        5440498764,
        5440498763,
        5440498762,
        5440498761,
        5440498760,
        5440498759,
        5440498758,
        5440498757,
        5440498756,
        5440498755,
        5440498754,
        5440498753,
        5440498752,
        5440498751,
        5440498749
      ],
      "tags": {
        "alt_name": "De Luysen",
        "boundary": "protected_area",
        "leisure": "nature_reserve",
        "name": "De Luysen - Mariahof",
        "operator": "Natuurpunt",
        "protect_class": "1",
        "protection_title": "Erkend Natuurreservaat",
        "wikidata": "Q4330940",
        "wikipedia": "nl:De Luysen"
      }
    },
    {
      "type": "way",
      "id": 106068166,
      "timestamp": "2011-03-27T10:55:22Z",
      "version": 1,
      "changeset": 7684582,
      "user": "rtheunis",
      "uid": 419697,
      "nodes": [
        1221311610,
        1221312237,
        1221311840,
        1221311566,
        1221311837,
        1221311610
      ],
      "tags": {
        "amenity": "parking",
        "name": "Voorste Luysmolen"
      }
    },
    {
      "type": "way",
      "id": 106938442,
      "timestamp": "2015-07-19T22:37:27Z",
      "version": 2,
      "changeset": 32743196,
      "user": "Eebie",
      "uid": 715684,
      "nodes": [
        1229573343,
        1229573339,
        1229573348,
        1229573351,
        1229573338,
        1229573347,
        1229573346,
        1229573343
      ],
      "tags": {
        "building": "shelter",
        "leisure": "bird_hide",
        "name": "Vogelkijkhut De IJsvogel",
        "tourism": "viewpoint"
      }
    },
    {
      "type": "way",
      "id": 106938446,
      "timestamp": "2015-07-19T22:39:11Z",
      "version": 2,
      "changeset": 32743215,
      "user": "Eebie",
      "uid": 715684,
      "nodes": [
        1229573353,
        1229573333,
        1229573329,
        1229573340,
        1229573353
      ],
      "tags": {
        "building": "shelter",
        "leisure": "bird_hide",
        "name": "Vogelkijkhut De Wielewaal",
        "tourism": "viewpoint"
      }
    },
    {
      "type": "way",
      "id": 184420563,
      "timestamp": "2012-10-06T11:29:20Z",
      "version": 1,
      "changeset": 13383653,
      "user": "JanWandelaar",
      "uid": 424172,
      "nodes": [
        1283717939,
        1283695532,
        1948966064,
        1283710055,
        1283691030,
        1948966062,
        1283717939
      ],
      "tags": {
        "amenity": "parking"
      }
    },
    {
      "type": "way",
      "id": 232530393,
      "timestamp": "2018-07-28T13:36:09Z",
      "version": 3,
      "changeset": 61143109,
      "user": "landfahrer",
      "uid": 1069176,
      "nodes": [
        1283864256,
        1283864869,
        1283862357,
        1283861751,
        1283864607,
        1283864845,
        1283863603,
        1283863079,
        1283861903,
        1283864256
      ],
      "tags": {
        "amenity": "parking"
      }
    },
    {
      "type": "way",
      "id": 564760986,
      "timestamp": "2018-02-27T17:08:21Z",
      "version": 1,
      "changeset": 56728626,
      "user": "Eebie",
      "uid": 715684,
      "nodes": [
        5440565536,
        5440565535,
        5440565534,
        5440565533,
        5440565532,
        5440565531,
        5440565530,
        5440565529,
        5440565528,
        5440565527,
        5440565526,
        5440565525,
        5440565524,
        5440565523,
        5440565522,
        5440565521,
        5440565220,
        5440565219,
        5440565218,
        5440565217,
        5440565216,
        5440565215,
        5440565214,
        5440565213,
        5440565212,
        5440565211,
        5440565210,
        5440565209,
        5440565208,
        5440565207,
        5440565206,
        5440565205,
        5440565204,
        5440565203,
        5440565202,
        5440565201,
        5440565200,
        5440565199,
        5440565198,
        5440565197,
        5440565196,
        5440565195,
        5440565194,
        5440565193,
        5440565192,
        5440565191,
        5440565190,
        5440565189,
        5440565188,
        5440565187,
        5440565186,
        5440565185,
        5440565184,
        5440565183,
        5440565182,
        5440565181,
        5440565180,
        5440565179,
        5440565178,
        5440565177,
        5440565176,
        5440565175,
        5440565174,
        5440565173,
        5440565172,
        5440565171,
        5440565170,
        5440565169,
        5440565168,
        5440565167,
        5440565166,
        5440565165,
        5440565164,
        5440565163,
        5440565162,
        5440565161,
        5440565160,
        5440565159,
        5440565158,
        5440565157,
        5440565156,
        5440565155,
        5440565154,
        5440565153,
        5440565152,
        5440565151,
        5440565150,
        5440565149,
        5440565148,
        5440565147,
        5440565146,
        5440565145,
        5440565144,
        5440565143,
        5440565142,
        5440565141,
        5440565140,
        5440565139,
        5440565138,
        5440565137,
        5440565136,
        5440565536
      ],
      "tags": {
        "alt_name": "Smeetshof",
        "boundary": "protected_area",
        "leisure": "nature_reserve",
        "name": "Natuurreservaat Smeetshof",
        "operator": "Natuurpunt",
        "protect_class": "1",
        "protection_title": "Erkend Natuurreservaat"
      }
    },
    {
      "type": "way",
      "id": 611283809,
      "timestamp": "2018-07-26T19:23:11Z",
      "version": 1,
      "changeset": 61098490,
      "user": "Eebie",
      "uid": 715684,
      "nodes": [
        5787847933,
        5787847932,
        5787847931,
        5787847930,
        5787847929,
        5787847928,
        5787847933
      ],
      "tags": {
        "amenity": "parking"
      }
    },
    {
      "type": "way",
      "id": 690233422,
      "timestamp": "2019-05-15T14:59:43Z",
      "version": 1,
      "changeset": 70280133,
      "user": "frans2650",
      "uid": 9514585,
      "nodes": [
        6475661792,
        6475661793,
        6475661794,
        6475661795,
        6475661792
      ],
      "tags": {
        "access": "yes",
        "amenity": "parking",
        "capacity": "5",
        "fee": "no",
        "parking": "lane",
        "surface": "asphalt"
      }
    },
    {
      "type": "node",
      "id": 1221311566,
      "lat": 51.1800253,
      "lon": 5.6311689
    },
    {
      "type": "node",
      "id": 1221311610,
      "lat": 51.1799037,
      "lon": 5.631227
    },
    {
      "type": "node",
      "id": 1221311837,
      "lat": 51.1799629,
      "lon": 5.6312015
    },
    {
      "type": "node",
      "id": 1221311840,
      "lat": 51.1799351,
      "lon": 5.6308877
    },
    {
      "type": "node",
      "id": 1221312237,
      "lat": 51.179828,
      "lon": 5.6309563
    },
    {
      "type": "node",
      "id": 6815252944,
      "lat": 51.1793838,
      "lon": 5.6310839
    },
    {
      "type": "node",
      "id": 6815252945,
      "lat": 51.179599,
      "lon": 5.6312113
    },
    {
      "type": "node",
      "id": 6815252946,
      "lat": 51.1795729,
      "lon": 5.6313213
    },
    {
      "type": "node",
      "id": 6815252947,
      "lat": 51.1793976,
      "lon": 5.631218
    },
    {
      "type": "node",
      "id": 6815252948,
      "lat": 51.1793682,
      "lon": 5.6312516
    },
    {
      "type": "node",
      "id": 6815252949,
      "lat": 51.1793173,
      "lon": 5.6311671
    },
    {
      "type": "node",
      "id": 5440498785,
      "lat": 51.1794874,
      "lon": 5.6410307
    },
    {
      "type": "node",
      "id": 5440498786,
      "lat": 51.1796975,
      "lon": 5.642268
    },
    {
      "type": "node",
      "id": 5440498787,
      "lat": 51.1794374,
      "lon": 5.64277
    },
    {
      "type": "node",
      "id": 5440498788,
      "lat": 51.1797778,
      "lon": 5.6427658
    },
    {
      "type": "node",
      "id": 5440498789,
      "lat": 51.1797679,
      "lon": 5.6427028
    },
    {
      "type": "node",
      "id": 5440498790,
      "lat": 51.1802558,
      "lon": 5.6427973
    },
    {
      "type": "node",
      "id": 5440498792,
      "lat": 51.1799674,
      "lon": 5.643897
    },
    {
      "type": "node",
      "id": 5440498793,
      "lat": 51.1798142,
      "lon": 5.6430298
    },
    {
      "type": "node",
      "id": 5440498794,
      "lat": 51.1796744,
      "lon": 5.643041
    },
    {
      "type": "node",
      "id": 5440498795,
      "lat": 51.1792675,
      "lon": 5.6432238
    },
    {
      "type": "node",
      "id": 5440498796,
      "lat": 51.179257,
      "lon": 5.6431145
    },
    {
      "type": "node",
      "id": 5440498797,
      "lat": 51.1787355,
      "lon": 5.6430221
    },
    {
      "type": "node",
      "id": 5440498798,
      "lat": 51.1785564,
      "lon": 5.64398
    },
    {
      "type": "node",
      "id": 5440498799,
      "lat": 51.1780507,
      "lon": 5.6438792
    },
    {
      "type": "node",
      "id": 5440498800,
      "lat": 51.1779506,
      "lon": 5.6448707
    },
    {
      "type": "node",
      "id": 5440498801,
      "lat": 51.1776609,
      "lon": 5.6448287
    },
    {
      "type": "node",
      "id": 5440498802,
      "lat": 51.1776293,
      "lon": 5.6446354
    },
    {
      "type": "node",
      "id": 5440498803,
      "lat": 51.176934,
      "lon": 5.6452992
    },
    {
      "type": "node",
      "id": 5440498804,
      "lat": 51.1772658,
      "lon": 5.6463831
    },
    {
      "type": "node",
      "id": 5440498805,
      "lat": 51.1774291,
      "lon": 5.6463075
    },
    {
      "type": "node",
      "id": 5440498806,
      "lat": 51.1774923,
      "lon": 5.6460723
    },
    {
      "type": "node",
      "id": 5440498807,
      "lat": 51.1780876,
      "lon": 5.6460218
    },
    {
      "type": "node",
      "id": 5440498808,
      "lat": 51.1780481,
      "lon": 5.6447867
    },
    {
      "type": "node",
      "id": 5440498809,
      "lat": 51.1786538,
      "lon": 5.6447657
    },
    {
      "type": "node",
      "id": 5440498810,
      "lat": 51.1785959,
      "lon": 5.6458958
    },
    {
      "type": "node",
      "id": 5440498811,
      "lat": 51.1794018,
      "lon": 5.6457824
    },
    {
      "type": "node",
      "id": 5440498812,
      "lat": 51.1793992,
      "lon": 5.6460512
    },
    {
      "type": "node",
      "id": 5440498813,
      "lat": 51.1803269,
      "lon": 5.6460975
    },
    {
      "type": "node",
      "id": 5440498814,
      "lat": 51.1801261,
      "lon": 5.6447488
    },
    {
      "type": "node",
      "id": 5440498767,
      "lat": 51.1822067,
      "lon": 5.6412576
    },
    {
      "type": "node",
      "id": 5440498768,
      "lat": 51.1821435,
      "lon": 5.6404971
    },
    {
      "type": "node",
      "id": 5440498769,
      "lat": 51.1821013,
      "lon": 5.6400812
    },
    {
      "type": "node",
      "id": 5440498770,
      "lat": 51.1823041,
      "lon": 5.6393628
    },
    {
      "type": "node",
      "id": 5440498771,
      "lat": 51.1822277,
      "lon": 5.6389973
    },
    {
      "type": "node",
      "id": 5440498772,
      "lat": 51.181838,
      "lon": 5.638199
    },
    {
      "type": "node",
      "id": 5440498773,
      "lat": 51.1816747,
      "lon": 5.6383335
    },
    {
      "type": "node",
      "id": 5440498774,
      "lat": 51.1820855,
      "lon": 5.6391611
    },
    {
      "type": "node",
      "id": 5440498775,
      "lat": 51.1821007,
      "lon": 5.6395277
    },
    {
      "type": "node",
      "id": 5440498776,
      "lat": 51.1820671,
      "lon": 5.63968
    },
    {
      "type": "node",
      "id": 5440498777,
      "lat": 51.1819571,
      "lon": 5.6400613
    },
    {
      "type": "node",
      "id": 5440498778,
      "lat": 51.1819453,
      "lon": 5.6401726
    },
    {
      "type": "node",
      "id": 5440498779,
      "lat": 51.1818821,
      "lon": 5.6401978
    },
    {
      "type": "node",
      "id": 5440498780,
      "lat": 51.181385,
      "lon": 5.6404299
    },
    {
      "type": "node",
      "id": 5440498781,
      "lat": 51.1814324,
      "lon": 5.6411483
    },
    {
      "type": "node",
      "id": 5440498782,
      "lat": 51.1806265,
      "lon": 5.6412534
    },
    {
      "type": "node",
      "id": 5440498783,
      "lat": 51.1805277,
      "lon": 5.6412891
    },
    {
      "type": "node",
      "id": 5440498784,
      "lat": 51.1804329,
      "lon": 5.6406778
    },
    {
      "type": "node",
      "id": 1221311590,
      "lat": 51.1807861,
      "lon": 5.6487321
    },
    {
      "type": "node",
      "id": 5440498748,
      "lat": 51.1823094,
      "lon": 5.6488529
    },
    {
      "type": "node",
      "id": 5440498749,
      "lat": 51.1823396,
      "lon": 5.6486348
    },
    {
      "type": "node",
      "id": 5440498751,
      "lat": 51.1823405,
      "lon": 5.6486282
    },
    {
      "type": "node",
      "id": 5440498752,
      "lat": 51.1824139,
      "lon": 5.6483517
    },
    {
      "type": "node",
      "id": 5440498753,
      "lat": 51.1825306,
      "lon": 5.6477811
    },
    {
      "type": "node",
      "id": 5440498754,
      "lat": 51.1825462,
      "lon": 5.6476585
    },
    {
      "type": "node",
      "id": 5440498755,
      "lat": 51.1825642,
      "lon": 5.6473211
    },
    {
      "type": "node",
      "id": 5440498756,
      "lat": 51.1825497,
      "lon": 5.6472087
    },
    {
      "type": "node",
      "id": 5440498757,
      "lat": 51.1823067,
      "lon": 5.6462393
    },
    {
      "type": "node",
      "id": 5440498758,
      "lat": 51.1823186,
      "lon": 5.6460008
    },
    {
      "type": "node",
      "id": 5440498759,
      "lat": 51.1823811,
      "lon": 5.6457078
    },
    {
      "type": "node",
      "id": 5440498760,
      "lat": 51.1825701,
      "lon": 5.6451018
    },
    {
      "type": "node",
      "id": 5440498761,
      "lat": 51.1826307,
      "lon": 5.6448749
    },
    {
      "type": "node",
      "id": 5440498762,
      "lat": 51.182499,
      "lon": 5.6442258
    },
    {
      "type": "node",
      "id": 5440498763,
      "lat": 51.1824964,
      "lon": 5.6441334
    },
    {
      "type": "node",
      "id": 5440498764,
      "lat": 51.182707,
      "lon": 5.6440346
    },
    {
      "type": "node",
      "id": 5440498765,
      "lat": 51.1827544,
      "lon": 5.6432574
    },
    {
      "type": "node",
      "id": 5440498766,
      "lat": 51.182657,
      "lon": 5.6427826
    },
    {
      "type": "node",
      "id": 5440498791,
      "lat": 51.1803987,
      "lon": 5.6435147
    },
    {
      "type": "node",
      "id": 5440498815,
      "lat": 51.181061,
      "lon": 5.6441838
    },
    {
      "type": "node",
      "id": 5440498816,
      "lat": 51.1816589,
      "lon": 5.643833
    },
    {
      "type": "node",
      "id": 5440498817,
      "lat": 51.181701,
      "lon": 5.6443749
    },
    {
      "type": "node",
      "id": 5440498818,
      "lat": 51.1811585,
      "lon": 5.6447741
    },
    {
      "type": "node",
      "id": 5440498819,
      "lat": 51.1812362,
      "lon": 5.645274
    },
    {
      "type": "node",
      "id": 5440498820,
      "lat": 51.1812941,
      "lon": 5.6453349
    },
    {
      "type": "node",
      "id": 5440500421,
      "lat": 51.1813116,
      "lon": 5.6454715
    },
    {
      "type": "node",
      "id": 5440500422,
      "lat": 51.1812777,
      "lon": 5.6455586
    },
    {
      "type": "node",
      "id": 5440500424,
      "lat": 51.1823318,
      "lon": 5.6486893
    },
    {
      "type": "node",
      "id": 5440500425,
      "lat": 51.1823067,
      "lon": 5.6490447
    },
    {
      "type": "node",
      "id": 5440500438,
      "lat": 51.1816497,
      "lon": 5.6485153
    },
    {
      "type": "node",
      "id": 1221312070,
      "lat": 51.1785494,
      "lon": 5.6531163
    },
    {
      "type": "node",
      "id": 1221312071,
      "lat": 51.1793368,
      "lon": 5.6526627
    },
    {
      "type": "node",
      "id": 1229573340,
      "lat": 51.1798482,
      "lon": 5.6557369
    },
    {
      "type": "node",
      "id": 5440500447,
      "lat": 51.1799207,
      "lon": 5.6511558
    },
    {
      "type": "node",
      "id": 5440500448,
      "lat": 51.1785564,
      "lon": 5.6518196
    },
    {
      "type": "node",
      "id": 5440500449,
      "lat": 51.1788514,
      "lon": 5.6517944
    },
    {
      "type": "node",
      "id": 5440500450,
      "lat": 51.17843,
      "lon": 5.6516264
    },
    {
      "type": "node",
      "id": 5440500451,
      "lat": 51.1781534,
      "lon": 5.6504626
    },
    {
      "type": "node",
      "id": 5440500452,
      "lat": 51.1775055,
      "lon": 5.6506055
    },
    {
      "type": "node",
      "id": 5440500453,
      "lat": 51.1778084,
      "lon": 5.6521011
    },
    {
      "type": "node",
      "id": 5440500454,
      "lat": 51.1782877,
      "lon": 5.651786
    },
    {
      "type": "node",
      "id": 5440500455,
      "lat": 51.1784063,
      "lon": 5.6524498
    },
    {
      "type": "node",
      "id": 5440500456,
      "lat": 51.1792464,
      "lon": 5.6520927
    },
    {
      "type": "node",
      "id": 5440500457,
      "lat": 51.1775635,
      "lon": 5.6520549
    },
    {
      "type": "node",
      "id": 5440500458,
      "lat": 51.1799022,
      "lon": 5.6514835
    },
    {
      "type": "node",
      "id": 5440500459,
      "lat": 51.1790726,
      "lon": 5.6538363
    },
    {
      "type": "node",
      "id": 5440500460,
      "lat": 51.1793228,
      "lon": 5.6537711
    },
    {
      "type": "node",
      "id": 5440500461,
      "lat": 51.1794374,
      "lon": 5.6539098
    },
    {
      "type": "node",
      "id": 5440500462,
      "lat": 51.1798364,
      "lon": 5.6539623
    },
    {
      "type": "node",
      "id": 5440500463,
      "lat": 51.1798259,
      "lon": 5.6545547
    },
    {
      "type": "node",
      "id": 5440500464,
      "lat": 51.1787737,
      "lon": 5.6541156
    },
    {
      "type": "node",
      "id": 5440500465,
      "lat": 51.178401,
      "lon": 5.6544328
    },
    {
      "type": "node",
      "id": 5440500466,
      "lat": 51.1782614,
      "lon": 5.6551639
    },
    {
      "type": "node",
      "id": 5440500467,
      "lat": 51.1785906,
      "lon": 5.6551891
    },
    {
      "type": "node",
      "id": 1221311542,
      "lat": 51.1782038,
      "lon": 5.6575089
    },
    {
      "type": "node",
      "id": 1221311572,
      "lat": 51.1769892,
      "lon": 5.6603597
    },
    {
      "type": "node",
      "id": 1221311583,
      "lat": 51.1787033,
      "lon": 5.6560909
    },
    {
      "type": "node",
      "id": 1221311620,
      "lat": 51.1786167,
      "lon": 5.6567746
    },
    {
      "type": "node",
      "id": 1221311752,
      "lat": 51.1786842,
      "lon": 5.6563554
    },
    {
      "type": "node",
      "id": 1221311767,
      "lat": 51.177911,
      "lon": 5.6606653
    },
    {
      "type": "node",
      "id": 1221311867,
      "lat": 51.1764562,
      "lon": 5.6612085
    },
    {
      "type": "node",
      "id": 1221311984,
      "lat": 51.1783131,
      "lon": 5.6572859
    },
    {
      "type": "node",
      "id": 1221312021,
      "lat": 51.1781787,
      "lon": 5.6573034
    },
    {
      "type": "node",
      "id": 1221312160,
      "lat": 51.1786105,
      "lon": 5.6565448
    },
    {
      "type": "node",
      "id": 1221312175,
      "lat": 51.1775651,
      "lon": 5.66064
    },
    {
      "type": "node",
      "id": 1221992447,
      "lat": 51.1771177,
      "lon": 5.6604367
    },
    {
      "type": "node",
      "id": 1229573329,
      "lat": 51.1798099,
      "lon": 5.6557865
    },
    {
      "type": "node",
      "id": 1229573333,
      "lat": 51.1798305,
      "lon": 5.6558271
    },
    {
      "type": "node",
      "id": 1229573353,
      "lat": 51.1798689,
      "lon": 5.6557775
    },
    {
      "type": "node",
      "id": 5440500468,
      "lat": 51.1785287,
      "lon": 5.6585858
    },
    {
      "type": "node",
      "id": 5440500469,
      "lat": 51.1783273,
      "lon": 5.6588799
    },
    {
      "type": "node",
      "id": 5440500470,
      "lat": 51.1787276,
      "lon": 5.6607243
    },
    {
      "type": "node",
      "id": 5440500471,
      "lat": 51.1789001,
      "lon": 5.6604365
    },
    {
      "type": "node",
      "id": 5440500472,
      "lat": 51.1784774,
      "lon": 5.6609701
    },
    {
      "type": "node",
      "id": 5440500473,
      "lat": 51.1781376,
      "lon": 5.6609028
    },
    {
      "type": "node",
      "id": 5440500474,
      "lat": 51.1780323,
      "lon": 5.6607306
    },
    {
      "type": "node",
      "id": 5440500475,
      "lat": 51.1761333,
      "lon": 5.6616255
    },
    {
      "type": "node",
      "id": 1221311527,
      "lat": 51.1837507,
      "lon": 5.6529139
    },
    {
      "type": "node",
      "id": 1221311675,
      "lat": 51.1842357,
      "lon": 5.6543325
    },
    {
      "type": "node",
      "id": 1221311744,
      "lat": 51.1834216,
      "lon": 5.652236
    },
    {
      "type": "node",
      "id": 1221311770,
      "lat": 51.1818913,
      "lon": 5.651459
    },
    {
      "type": "node",
      "id": 1221311892,
      "lat": 51.1841404,
      "lon": 5.6546794
    },
    {
      "type": "node",
      "id": 1221312026,
      "lat": 51.1842135,
      "lon": 5.6541098
    },
    {
      "type": "node",
      "id": 1221312142,
      "lat": 51.1824394,
      "lon": 5.6510086
    },
    {
      "type": "node",
      "id": 1229573338,
      "lat": 51.1810048,
      "lon": 5.6516388
    },
    {
      "type": "node",
      "id": 1229573339,
      "lat": 51.180951,
      "lon": 5.6516662
    },
    {
      "type": "node",
      "id": 1229573343,
      "lat": 51.1809606,
      "lon": 5.651713
    },
    {
      "type": "node",
      "id": 1229573346,
      "lat": 51.1809896,
      "lon": 5.6517256
    },
    {
      "type": "node",
      "id": 1229573347,
      "lat": 51.1810127,
      "lon": 5.6516933
    },
    {
      "type": "node",
      "id": 1229573348,
      "lat": 51.1809695,
      "lon": 5.6516288
    },
    {
      "type": "node",
      "id": 1229573351,
      "lat": 51.1810046,
      "lon": 5.6516385
    },
    {
      "type": "node",
      "id": 5440498750,
      "lat": 51.1818591,
      "lon": 5.6492474
    },
    {
      "type": "node",
      "id": 5440500423,
      "lat": 51.1818568,
      "lon": 5.6492466
    },
    {
      "type": "node",
      "id": 5440500426,
      "lat": 51.1822962,
      "lon": 5.649448
    },
    {
      "type": "node",
      "id": 5440500427,
      "lat": 51.1823818,
      "lon": 5.6498177
    },
    {
      "type": "node",
      "id": 5440500428,
      "lat": 51.1823706,
      "lon": 5.6501144
    },
    {
      "type": "node",
      "id": 5440500429,
      "lat": 51.1823765,
      "lon": 5.6504616
    },
    {
      "type": "node",
      "id": 5440500430,
      "lat": 51.1817787,
      "lon": 5.6492778
    },
    {
      "type": "node",
      "id": 5440500436,
      "lat": 51.1828443,
      "lon": 5.6515744
    },
    {
      "type": "node",
      "id": 5440500437,
      "lat": 51.1817655,
      "lon": 5.6492757
    },
    {
      "type": "node",
      "id": 5440500439,
      "lat": 51.1809465,
      "lon": 5.6495394
    },
    {
      "type": "node",
      "id": 5440500440,
      "lat": 51.182071,
      "lon": 5.6512882
    },
    {
      "type": "node",
      "id": 5440500441,
      "lat": 51.1818788,
      "lon": 5.6513806
    },
    {
      "type": "node",
      "id": 5440500442,
      "lat": 51.1813033,
      "lon": 5.6516936
    },
    {
      "type": "node",
      "id": 5440500443,
      "lat": 51.1813349,
      "lon": 5.6518995
    },
    {
      "type": "node",
      "id": 5440500444,
      "lat": 51.1810992,
      "lon": 5.6519877
    },
    {
      "type": "node",
      "id": 5440500445,
      "lat": 51.1804961,
      "lon": 5.6512325
    },
    {
      "type": "node",
      "id": 5440500446,
      "lat": 51.1811091,
      "lon": 5.6510939
    },
    {
      "type": "node",
      "id": 1221311547,
      "lat": 51.1840889,
      "lon": 5.6560253
    },
    {
      "type": "node",
      "id": 1221311692,
      "lat": 51.1845723,
      "lon": 5.658153
    },
    {
      "type": "node",
      "id": 1221311995,
      "lat": 51.1845088,
      "lon": 5.657927
    },
    {
      "type": "node",
      "id": 1221312095,
      "lat": 51.1841543,
      "lon": 5.6565547
    },
    {
      "type": "node",
      "id": 1221312293,
      "lat": 51.1847002,
      "lon": 5.6580772
    },
    {
      "type": "node",
      "id": 5440500431,
      "lat": 51.1843701,
      "lon": 5.6588484
    },
    {
      "type": "node",
      "id": 5440500432,
      "lat": 51.1842476,
      "lon": 5.6589324
    },
    {
      "type": "node",
      "id": 5440500433,
      "lat": 51.1839961,
      "lon": 5.6598882
    },
    {
      "type": "node",
      "id": 5440500434,
      "lat": 51.1834629,
      "lon": 5.6619258
    },
    {
      "type": "node",
      "id": 5440500435,
      "lat": 51.1845663,
      "lon": 5.6582077
    },
    {
      "type": "node",
      "id": 5440518793,
      "lat": 51.1846359,
      "lon": 5.6581395
    },
    {
      "type": "node",
      "id": 1221312248,
      "lat": 51.1778835,
      "lon": 5.6628072
    },
    {
      "type": "node",
      "id": 5440500476,
      "lat": 51.1759594,
      "lon": 5.66268
    },
    {
      "type": "node",
      "id": 5440500477,
      "lat": 51.175401,
      "lon": 5.6635412
    },
    {
      "type": "node",
      "id": 5440500478,
      "lat": 51.1747452,
      "lon": 5.6638563
    },
    {
      "type": "node",
      "id": 5440500479,
      "lat": 51.1765639,
      "lon": 5.6640538
    },
    {
      "type": "node",
      "id": 5440500480,
      "lat": 51.1771038,
      "lon": 5.6635118
    },
    {
      "type": "node",
      "id": 5440500481,
      "lat": 51.1770933,
      "lon": 5.6630602
    },
    {
      "type": "node",
      "id": 5440500482,
      "lat": 51.17779,
      "lon": 5.6624678
    },
    {
      "type": "node",
      "id": 5440500483,
      "lat": 51.1783812,
      "lon": 5.6627115
    },
    {
      "type": "node",
      "id": 5440500484,
      "lat": 51.1799747,
      "lon": 5.6631232
    },
    {
      "type": "node",
      "id": 5440500485,
      "lat": 51.1796731,
      "lon": 5.6648689
    },
    {
      "type": "node",
      "id": 1221312221,
      "lat": 51.1824625,
      "lon": 5.6657255
    },
    {
      "type": "node",
      "id": 684095663,
      "lat": 51.1845362,
      "lon": 5.6765613
    },
    {
      "type": "node",
      "id": 684096296,
      "lat": 51.1845703,
      "lon": 5.6763459
    },
    {
      "type": "node",
      "id": 684100093,
      "lat": 51.1845737,
      "lon": 5.6763826
    },
    {
      "type": "node",
      "id": 684116259,
      "lat": 51.1846416,
      "lon": 5.6766708
    },
    {
      "type": "node",
      "id": 684129576,
      "lat": 51.1845577,
      "lon": 5.676656
    },
    {
      "type": "node",
      "id": 684132283,
      "lat": 51.1845636,
      "lon": 5.6763177
    },
    {
      "type": "node",
      "id": 684141623,
      "lat": 51.1845707,
      "lon": 5.6767101
    },
    {
      "type": "node",
      "id": 684144025,
      "lat": 51.184578,
      "lon": 5.67638
    },
    {
      "type": "node",
      "id": 684152518,
      "lat": 51.1844933,
      "lon": 5.6765865
    },
    {
      "type": "node",
      "id": 684153283,
      "lat": 51.1844893,
      "lon": 5.6763617
    },
    {
      "type": "node",
      "id": 684155914,
      "lat": 51.1845848,
      "lon": 5.6764281
    },
    {
      "type": "node",
      "id": 684163968,
      "lat": 51.1845159,
      "lon": 5.6766812
    },
    {
      "type": "node",
      "id": 5270497167,
      "lat": 51.1846388,
      "lon": 5.6766646
    },
    {
      "type": "node",
      "id": 5270497168,
      "lat": 51.1846402,
      "lon": 5.6766639
    },
    {
      "type": "node",
      "id": 5270497169,
      "lat": 51.1846357,
      "lon": 5.6766493
    },
    {
      "type": "node",
      "id": 5270497170,
      "lat": 51.1846515,
      "lon": 5.6766396
    },
    {
      "type": "node",
      "id": 5270497171,
      "lat": 51.1846413,
      "lon": 5.676593
    },
    {
      "type": "node",
      "id": 5270497172,
      "lat": 51.1846257,
      "lon": 5.6766026
    },
    {
      "type": "node",
      "id": 5440565136,
      "lat": 51.2119045,
      "lon": 5.6005779
    },
    {
      "type": "node",
      "id": 5440565536,
      "lat": 51.2119327,
      "lon": 5.6007636
    },
    {
      "type": "node",
      "id": 5440565137,
      "lat": 51.2097968,
      "lon": 5.608856
    },
    {
      "type": "node",
      "id": 5440565138,
      "lat": 51.20985,
      "lon": 5.6088824
    },
    {
      "type": "node",
      "id": 5440565139,
      "lat": 51.2098347,
      "lon": 5.60894
    },
    {
      "type": "node",
      "id": 5440565140,
      "lat": 51.2098102,
      "lon": 5.6089215
    },
    {
      "type": "node",
      "id": 5440565534,
      "lat": 51.20991,
      "lon": 5.6089762
    },
    {
      "type": "node",
      "id": 5440565535,
      "lat": 51.2098512,
      "lon": 5.608941
    },
    {
      "type": "node",
      "id": 5440565195,
      "lat": 51.1933261,
      "lon": 5.6347711
    },
    {
      "type": "node",
      "id": 5440565196,
      "lat": 51.1933947,
      "lon": 5.6350916
    },
    {
      "type": "node",
      "id": 5440565197,
      "lat": 51.1933653,
      "lon": 5.6353261
    },
    {
      "type": "node",
      "id": 5440565169,
      "lat": 51.1999815,
      "lon": 5.6297012
    },
    {
      "type": "node",
      "id": 5440565170,
      "lat": 51.199014,
      "lon": 5.6312882
    },
    {
      "type": "node",
      "id": 5440565171,
      "lat": 51.1990605,
      "lon": 5.6313918
    },
    {
      "type": "node",
      "id": 5440565172,
      "lat": 51.1989968,
      "lon": 5.6314622
    },
    {
      "type": "node",
      "id": 5440565173,
      "lat": 51.1981714,
      "lon": 5.6324199
    },
    {
      "type": "node",
      "id": 5440565174,
      "lat": 51.1983526,
      "lon": 5.6328029
    },
    {
      "type": "node",
      "id": 5440565175,
      "lat": 51.1991585,
      "lon": 5.6319137
    },
    {
      "type": "node",
      "id": 5440565176,
      "lat": 51.1994206,
      "lon": 5.6325899
    },
    {
      "type": "node",
      "id": 5440565177,
      "lat": 51.198894,
      "lon": 5.6331528
    },
    {
      "type": "node",
      "id": 5440565178,
      "lat": 51.1988425,
      "lon": 5.6330433
    },
    {
      "type": "node",
      "id": 5440565179,
      "lat": 51.1985388,
      "lon": 5.6333365
    },
    {
      "type": "node",
      "id": 5440565180,
      "lat": 51.1984114,
      "lon": 5.6330082
    },
    {
      "type": "node",
      "id": 5440565181,
      "lat": 51.1979828,
      "lon": 5.6320739
    },
    {
      "type": "node",
      "id": 5440565182,
      "lat": 51.1971916,
      "lon": 5.6307879
    },
    {
      "type": "node",
      "id": 5440565183,
      "lat": 51.1963,
      "lon": 5.6319215
    },
    {
      "type": "node",
      "id": 5440565184,
      "lat": 51.1963808,
      "lon": 5.6321326
    },
    {
      "type": "node",
      "id": 5440565185,
      "lat": 51.196469,
      "lon": 5.6328753
    },
    {
      "type": "node",
      "id": 5440565186,
      "lat": 51.1963147,
      "lon": 5.6353027
    },
    {
      "type": "node",
      "id": 5440565187,
      "lat": 51.1962461,
      "lon": 5.6353789
    },
    {
      "type": "node",
      "id": 5440565188,
      "lat": 51.1963012,
      "lon": 5.6355001
    },
    {
      "type": "node",
      "id": 5440565189,
      "lat": 51.1958493,
      "lon": 5.6360552
    },
    {
      "type": "node",
      "id": 5440565190,
      "lat": 51.1958113,
      "lon": 5.6359262
    },
    {
      "type": "node",
      "id": 5440565191,
      "lat": 51.1959374,
      "lon": 5.6357464
    },
    {
      "type": "node",
      "id": 5440565192,
      "lat": 51.195788,
      "lon": 5.6353926
    },
    {
      "type": "node",
      "id": 5440565194,
      "lat": 51.1944628,
      "lon": 5.6331059
    },
    {
      "type": "node",
      "id": 5787847928,
      "lat": 51.1987368,
      "lon": 5.6327811
    },
    {
      "type": "node",
      "id": 5787847929,
      "lat": 51.1987351,
      "lon": 5.6326979
    },
    {
      "type": "node",
      "id": 5787847930,
      "lat": 51.1987561,
      "lon": 5.6325531
    },
    {
      "type": "node",
      "id": 5787847931,
      "lat": 51.1988376,
      "lon": 5.6324069
    },
    {
      "type": "node",
      "id": 5787847932,
      "lat": 51.1989586,
      "lon": 5.6323761
    },
    {
      "type": "node",
      "id": 5787847933,
      "lat": 51.1990738,
      "lon": 5.6324096
    },
    {
      "type": "node",
      "id": 5440565142,
      "lat": 51.2045646,
      "lon": 5.6099153
    },
    {
      "type": "node",
      "id": 5440565143,
      "lat": 51.2043803,
      "lon": 5.6142102
    },
    {
      "type": "node",
      "id": 5440565144,
      "lat": 51.203648,
      "lon": 5.6164266
    },
    {
      "type": "node",
      "id": 5440565145,
      "lat": 51.2007493,
      "lon": 5.6178201
    },
    {
      "type": "node",
      "id": 5440565146,
      "lat": 51.2009367,
      "lon": 5.6181484
    },
    {
      "type": "node",
      "id": 5440565147,
      "lat": 51.20343,
      "lon": 5.6170012
    },
    {
      "type": "node",
      "id": 5440565148,
      "lat": 51.2034643,
      "lon": 5.6170422
    },
    {
      "type": "node",
      "id": 5440565149,
      "lat": 51.202345,
      "lon": 5.6205001
    },
    {
      "type": "node",
      "id": 5440565150,
      "lat": 51.2021809,
      "lon": 5.6207557
    },
    {
      "type": "node",
      "id": 5440565151,
      "lat": 51.2021613,
      "lon": 5.6207166
    },
    {
      "type": "node",
      "id": 5440565152,
      "lat": 51.201767,
      "lon": 5.6197824
    },
    {
      "type": "node",
      "id": 5440565153,
      "lat": 51.2009907,
      "lon": 5.6209681
    },
    {
      "type": "node",
      "id": 5440565154,
      "lat": 51.2010273,
      "lon": 5.6210645
    },
    {
      "type": "node",
      "id": 5440565155,
      "lat": 51.2011657,
      "lon": 5.621256
    },
    {
      "type": "node",
      "id": 5440565156,
      "lat": 51.2015135,
      "lon": 5.6217446
    },
    {
      "type": "node",
      "id": 5440565157,
      "lat": 51.2015156,
      "lon": 5.6218248
    },
    {
      "type": "node",
      "id": 5440565141,
      "lat": 51.2088938,
      "lon": 5.6124766
    },
    {
      "type": "node",
      "id": 5440565158,
      "lat": 51.2014674,
      "lon": 5.6231746
    },
    {
      "type": "node",
      "id": 5440565159,
      "lat": 51.2014351,
      "lon": 5.6233177
    },
    {
      "type": "node",
      "id": 5440565160,
      "lat": 51.2014645,
      "lon": 5.6244415
    },
    {
      "type": "node",
      "id": 5440565161,
      "lat": 51.2016017,
      "lon": 5.6251395
    },
    {
      "type": "node",
      "id": 5440565162,
      "lat": 51.2016237,
      "lon": 5.625804
    },
    {
      "type": "node",
      "id": 5440565163,
      "lat": 51.2012404,
      "lon": 5.626191
    },
    {
      "type": "node",
      "id": 5440565164,
      "lat": 51.2013359,
      "lon": 5.6271917
    },
    {
      "type": "node",
      "id": 5440565165,
      "lat": 51.2016705,
      "lon": 5.6268411
    },
    {
      "type": "node",
      "id": 5440565166,
      "lat": 51.2013506,
      "lon": 5.6273442
    },
    {
      "type": "node",
      "id": 5440565167,
      "lat": 51.2013702,
      "lon": 5.6275396
    },
    {
      "type": "node",
      "id": 5440565168,
      "lat": 51.2008118,
      "lon": 5.6282667
    },
    {
      "type": "node",
      "id": 5440565198,
      "lat": 51.1924075,
      "lon": 5.6365105
    },
    {
      "type": "node",
      "id": 5440565199,
      "lat": 51.1924467,
      "lon": 5.6366552
    },
    {
      "type": "node",
      "id": 5440565200,
      "lat": 51.192775,
      "lon": 5.6363386
    },
    {
      "type": "node",
      "id": 5440565201,
      "lat": 51.1929317,
      "lon": 5.6363698
    },
    {
      "type": "node",
      "id": 5440565202,
      "lat": 51.1933996,
      "lon": 5.6370422
    },
    {
      "type": "node",
      "id": 5440565212,
      "lat": 51.1929195,
      "lon": 5.6410566
    },
    {
      "type": "node",
      "id": 5440565213,
      "lat": 51.1931743,
      "lon": 5.6421042
    },
    {
      "type": "node",
      "id": 5440565522,
      "lat": 51.1915623,
      "lon": 5.647606
    },
    {
      "type": "node",
      "id": 5440565523,
      "lat": 51.1915807,
      "lon": 5.647864
    },
    {
      "type": "node",
      "id": 5440565524,
      "lat": 51.1921723,
      "lon": 5.6484542
    },
    {
      "type": "node",
      "id": 5440565193,
      "lat": 51.1949429,
      "lon": 5.6362486
    },
    {
      "type": "node",
      "id": 5440565203,
      "lat": 51.1942264,
      "lon": 5.6377888
    },
    {
      "type": "node",
      "id": 5440565204,
      "lat": 51.1942962,
      "lon": 5.6379461
    },
    {
      "type": "node",
      "id": 5440565205,
      "lat": 51.1941566,
      "lon": 5.6381093
    },
    {
      "type": "node",
      "id": 5440565206,
      "lat": 51.1940855,
      "lon": 5.6387699
    },
    {
      "type": "node",
      "id": 5440565207,
      "lat": 51.1939973,
      "lon": 5.6387152
    },
    {
      "type": "node",
      "id": 5440565208,
      "lat": 51.1939116,
      "lon": 5.6395087
    },
    {
      "type": "node",
      "id": 5440565209,
      "lat": 51.1939312,
      "lon": 5.6395478
    },
    {
      "type": "node",
      "id": 5440565210,
      "lat": 51.193696,
      "lon": 5.6397706
    },
    {
      "type": "node",
      "id": 5440565211,
      "lat": 51.193892,
      "lon": 5.6405797
    },
    {
      "type": "node",
      "id": 5440565214,
      "lat": 51.1936226,
      "lon": 5.6422371
    },
    {
      "type": "node",
      "id": 5440565215,
      "lat": 51.1938675,
      "lon": 5.6420456
    },
    {
      "type": "node",
      "id": 5440565216,
      "lat": 51.1940341,
      "lon": 5.6423426
    },
    {
      "type": "node",
      "id": 5440565217,
      "lat": 51.1940855,
      "lon": 5.6425928
    },
    {
      "type": "node",
      "id": 5440565218,
      "lat": 51.1941492,
      "lon": 5.6435896
    },
    {
      "type": "node",
      "id": 5440565219,
      "lat": 51.1942423,
      "lon": 5.6440313
    },
    {
      "type": "node",
      "id": 5440565220,
      "lat": 51.1941174,
      "lon": 5.6449264
    },
    {
      "type": "node",
      "id": 5440565521,
      "lat": 51.1936372,
      "lon": 5.6454698
    },
    {
      "type": "node",
      "id": 5440565525,
      "lat": 51.1920278,
      "lon": 5.6499298
    },
    {
      "type": "node",
      "id": 5440565526,
      "lat": 51.1920351,
      "lon": 5.6500921
    },
    {
      "type": "node",
      "id": 5440565527,
      "lat": 51.1922164,
      "lon": 5.6500784
    },
    {
      "type": "node",
      "id": 5440565528,
      "lat": 51.1922323,
      "lon": 5.6505533
    },
    {
      "type": "node",
      "id": 1283861751,
      "lat": 51.1909444,
      "lon": 5.6588263
    },
    {
      "type": "node",
      "id": 1283861903,
      "lat": 51.1911193,
      "lon": 5.6594306
    },
    {
      "type": "node",
      "id": 1283862357,
      "lat": 51.1909494,
      "lon": 5.6590787
    },
    {
      "type": "node",
      "id": 1283863079,
      "lat": 51.1910825,
      "lon": 5.6589489
    },
    {
      "type": "node",
      "id": 1283863603,
      "lat": 51.1910229,
      "lon": 5.658182
    },
    {
      "type": "node",
      "id": 1283864256,
      "lat": 51.1909791,
      "lon": 5.6594779
    },
    {
      "type": "node",
      "id": 1283864607,
      "lat": 51.1909435,
      "lon": 5.6584333
    },
    {
      "type": "node",
      "id": 1283864845,
      "lat": 51.1909127,
      "lon": 5.6582201
    },
    {
      "type": "node",
      "id": 1283864869,
      "lat": 51.1909592,
      "lon": 5.6592456
    },
    {
      "type": "node",
      "id": 5440565530,
      "lat": 51.200764,
      "lon": 5.642628
    },
    {
      "type": "node",
      "id": 5440565532,
      "lat": 51.2026989,
      "lon": 5.6363796
    },
    {
      "type": "node",
      "id": 5440565533,
      "lat": 51.2027522,
      "lon": 5.6364333
    },
    {
      "type": "node",
      "id": 5440565529,
      "lat": 51.2007022,
      "lon": 5.6427179
    },
    {
      "type": "node",
      "id": 5440565531,
      "lat": 51.2008455,
      "lon": 5.642797
    },
    {
      "type": "node",
      "id": 1283691030,
      "lat": 51.222304,
      "lon": 5.6449118
    },
    {
      "type": "node",
      "id": 1283695532,
      "lat": 51.2218044,
      "lon": 5.6458335
    },
    {
      "type": "node",
      "id": 1283710055,
      "lat": 51.2224337,
      "lon": 5.6454588
    },
    {
      "type": "node",
      "id": 1283717939,
      "lat": 51.2216701,
      "lon": 5.6453857
    },
    {
      "type": "node",
      "id": 1948966062,
      "lat": 51.2219377,
      "lon": 5.6451449
    },
    {
      "type": "node",
      "id": 1948966064,
      "lat": 51.2220601,
      "lon": 5.6456185
    },
    {
      "type": "node",
      "id": 6475661792,
      "lat": 51.1947007,
      "lon": 5.7104601
    },
    {
      "type": "node",
      "id": 6475661793,
      "lat": 51.1947174,
      "lon": 5.710516
    },
    {
      "type": "node",
      "id": 6475661794,
      "lat": 51.194844,
      "lon": 5.71042
    },
    {
      "type": "node",
      "id": 6475661795,
      "lat": 51.1948273,
      "lon": 5.7103641
    }
  ]
}